[{"Storename":"Urvills Supermarket","Address":"Kingston","Parish":"Kingston","OpeningHours":"\"Monday to Saturday 8am-10pm,Sundays 10am to 6pm\"","StoreImage":""},{"Storename":"Megamart","Address":"Mandevile","Parish":"Manchester","OpeningHours":"\"Monday to Saturday 8am-10pm,Sundays 10am to 6pm\"","StoreImage":""},{"Storename":"Pricemart","Address":"Somewhere in Junction","Parish":"St. Elizabeth","OpeningHours":"\"Monday to Saturday 8am-10pm,Sundays 10am to 6pm\"","StoreImage":""},{"Storename":"sUPERPLUS","Address":"Oraccabessa","Parish":"St. Ann","OpeningHours":"","StoreImage":""},{"Storename":"lulufah","Address":"great george street","Parish":"westmoreland","OpeningHours":"\"Monday to Saturday 8am-10pm,Sundays 10am to 6pm\"","StoreImage":""},{"Storename":"long peng","Address":"beckford street kjhkjl","Parish":"westmoreland","OpeningHours":"","StoreImage":""},{"Storename":"wdewvf","Address":"qdfdw","Parish":"1wd","OpeningHours":"","StoreImage":"megamart.jpg"},{"Storename":"Walmart","Address":"Kingon","Parish":"Kingston","OpeningHours":"","StoreImage":"megamart.jpg"},{"Storename":"Fesco Minimart","Address":"Pert Road, Mandeville","Parish":"Manchester","OpeningHours":"","StoreImage":""}]